{
"type": "FeatureCollection",
"name": "bar",
"crs": { "type": "name", "properties": { "name": "urn:ogc:def:crs:EPSG::3857" } },
"features": [
{ "type": "Feature", "properties": { "Name": "fitfit", "type": "Bars, Restaurants und Cafés", "link": null, "Text": null, "Name_1": "fitfit", "Gsearch": "https:\/\/www.google.com\/search?q=fitfit" }, "geometry": { "type": "Point", "coordinates": [ 8.648769600000151, 50.119713100000013, 0.0 ] } },
{ "type": "Feature", "properties": { "Name": "Amarula Bar", "type": "Bars, Restaurants und Cafés", "link": null, "Text": null, "Name_1": "Amarula Bar", "Gsearch": "https:\/\/www.google.com\/search?q=Amarula Bar" }, "geometry": { "type": "Point", "coordinates": [ 8.682351, 50.115988000000186, 0.0 ] } },
{ "type": "Feature", "properties": { "Name": "The Parlour", "type": "Bars, Restaurants und Cafés", "link": null, "Text": null, "Name_1": "The Parlour", "Gsearch": "https:\/\/www.google.com\/search?q=The Parlour" }, "geometry": { "type": "Point", "coordinates": [ 8.675806500000022, 50.115991800000131, 0.0 ] } },
{ "type": "Feature", "properties": { "Name": "Berliner Keller Frankfurt", "type": "Bars, Restaurants und Cafés", "link": null, "Text": null, "Name_1": "Berliner Keller Frankfurt", "Gsearch": "https:\/\/www.google.com\/search?q=Berliner Keller Frankfurt" }, "geometry": { "type": "Point", "coordinates": [ 8.691434700000116, 50.110473, 0.0 ] } },
{ "type": "Feature", "properties": { "Name": "Jambo Bar", "type": "Bars, Restaurants und Cafés", "link": null, "Text": null, "Name_1": "Jambo Bar", "Gsearch": "https:\/\/www.google.com\/search?q=Jambo Bar" }, "geometry": { "type": "Point", "coordinates": [ 8.668941500000074, 50.107868200000155, 0.0 ] } },
{ "type": "Feature", "properties": { "Name": "Shikorina Lounge - Frankfurt am Main", "type": "Bars, Restaurants und Cafés", "link": null, "Text": null, "Name_1": "Shikorina Lounge - Frankfurt am Main", "Gsearch": "https:\/\/www.google.com\/search?q=Shikorina Lounge - Frankfurt am Main" }, "geometry": { "type": "Point", "coordinates": [ 8.669470100000126, 50.141410100000087, 0.0 ] } },
{ "type": "Feature", "properties": { "Name": "Bar-Mereb", "type": "Bars, Restaurants und Cafés", "link": null, "Text": null, "Name_1": "Bar-Mereb", "Gsearch": "https:\/\/www.google.com\/search?q=Bar-Mereb" }, "geometry": { "type": "Point", "coordinates": [ 8.660862300000076, 50.108291300000189, 0.0 ] } },
{ "type": "Feature", "properties": { "Name": "Hakuna Matata", "type": "Bars, Restaurants und Cafés", "link": null, "Text": null, "Name_1": "Hakuna Matata", "Gsearch": "https:\/\/www.google.com\/search?q=Hakuna Matata" }, "geometry": { "type": "Point", "coordinates": [ 8.6644665, 50.109907200000123, 0.0 ] } },
{ "type": "Feature", "properties": { "Name": "Restaurant Spirit of New Orleans", "type": "Bars, Restaurants und Cafés", "link": null, "Text": null, "Name_1": "Restaurant Spirit of New Orleans", "Gsearch": "https:\/\/www.google.com\/search?q=Restaurant Spirit of New Orleans" }, "geometry": { "type": "Point", "coordinates": [ 8.381107700000086, 50.068779600000028, 0.0 ] } },
{ "type": "Feature", "properties": { "Name": "Lalibela", "type": "Bars, Restaurants und Cafés", "link": null, "Text": null, "Name_1": "Lalibela", "Gsearch": "https:\/\/www.google.com\/search?q=Lalibela" }, "geometry": { "type": "Point", "coordinates": [ 8.689422200000024, 50.112767400000166, 0.0 ] } },
{ "type": "Feature", "properties": { "Name": "Africa Queen Restaurant", "type": "Bars, Restaurants und Cafés", "link": null, "Text": null, "Name_1": "Africa Queen Restaurant", "Gsearch": "https:\/\/www.google.com\/search?q=Africa Queen Restaurant" }, "geometry": { "type": "Point", "coordinates": [ 8.663188100000127, 50.103133900000159, 0.0 ] } },
{ "type": "Feature", "properties": { "Name": "Addis Abebaye|Äthiopisches Restaurant Mainz", "type": "Bars, Restaurants und Cafés", "link": null, "Text": null, "Name_1": "Addis Abebaye|Äthiopisches Restaurant Mainz", "Gsearch": "https:\/\/www.google.com\/search?q=Addis Abebaye|Äthiopisches Restaurant Mainz" }, "geometry": { "type": "Point", "coordinates": [ 8.260707400000058, 50.000786900000151, 0.0 ] } },
{ "type": "Feature", "properties": { "Name": "Adabina Ethiopian Restaurant", "type": "Bars, Restaurants und Cafés", "link": null, "Text": null, "Name_1": "Adabina Ethiopian Restaurant", "Gsearch": "https:\/\/www.google.com\/search?q=Adabina Ethiopian Restaurant" }, "geometry": { "type": "Point", "coordinates": [ 8.692142500000045, 50.113169500000026, 0.0 ] } },
{ "type": "Feature", "properties": { "Name": "Dliet Bistro", "type": "Bars, Restaurants und Cafés", "link": null, "Text": null, "Name_1": "Dliet Bistro", "Gsearch": "https:\/\/www.google.com\/search?q=Dliet Bistro" }, "geometry": { "type": "Point", "coordinates": [ 8.67783390000011, 50.11982960000006, 0.0 ] } },
{ "type": "Feature", "properties": { "Name": "Erta Ale", "type": "Bars, Restaurants und Cafés", "link": null, "Text": null, "Name_1": "Erta Ale", "Gsearch": "https:\/\/www.google.com\/search?q=Erta Ale" }, "geometry": { "type": "Point", "coordinates": [ 8.645748300000093, 50.12252970000003, 0.0 ] } },
{ "type": "Feature", "properties": { "Name": "TownHall Bar & Grill", "type": "Bars, Restaurants und Cafés", "link": null, "Text": null, "Name_1": "TownHall Bar & Grill", "Gsearch": "https:\/\/www.google.com\/search?q=TownHall Bar & Grill" }, "geometry": { "type": "Point", "coordinates": [ 8.57861110000016, 49.538333300000033, 0.0 ] } },
{ "type": "Feature", "properties": { "Name": "Hidmo", "type": "Bars, Restaurants und Cafés", "link": null, "Text": null, "Name_1": "Hidmo", "Gsearch": "https:\/\/www.google.com\/search?q=Hidmo" }, "geometry": { "type": "Point", "coordinates": [ 8.68151290000003, 50.123725700000193, 0.0 ] } },
{ "type": "Feature", "properties": { "Name": "Im Herzen Afrikas", "type": "Bars, Restaurants und Cafés", "link": null, "Text": null, "Name_1": "Im Herzen Afrikas", "Gsearch": "https:\/\/www.google.com\/search?q=Im Herzen Afrikas" }, "geometry": { "type": "Point", "coordinates": [ 8.671666700000173, 50.1075, 0.0 ] } },
{ "type": "Feature", "properties": { "Name": "Im Herzen Afrikas", "type": "Bars, Restaurants und Cafés", "link": null, "Text": null, "Name_1": "Im Herzen Afrikas", "Gsearch": "https:\/\/www.google.com\/search?q=Im Herzen Afrikas" }, "geometry": { "type": "Point", "coordinates": [ 8.267930100000115, 49.996490500000107, 0.0 ] } },
{ "type": "Feature", "properties": { "Name": "Kilimanjaro Restaurant", "type": "Bars, Restaurants und Cafés", "link": null, "Text": null, "Name_1": "Kilimanjaro Restaurant", "Gsearch": "https:\/\/www.google.com\/search?q=Kilimanjaro Restaurant" }, "geometry": { "type": "Point", "coordinates": [ 8.656497100000024, 50.107082300000172, 0.0 ] } },
{ "type": "Feature", "properties": { "Name": "Mommona African Restaurant", "type": "Bars, Restaurants und Cafés", "link": null, "Text": null, "Name_1": "Mommona African Restaurant", "Gsearch": "https:\/\/www.google.com\/search?q=Mommona African Restaurant" }, "geometry": { "type": "Point", "coordinates": [ 8.691333300000053, 50.105972200000167, 0.0 ] } },
{ "type": "Feature", "properties": { "Name": "Nollywood", "type": "Bars, Restaurants und Cafés", "link": null, "Text": null, "Name_1": "Nollywood", "Gsearch": "https:\/\/www.google.com\/search?q=Nollywood" }, "geometry": { "type": "Point", "coordinates": [ 8.659238500000185, 50.10170080000006, 0.0 ] } },
{ "type": "Feature", "properties": { "Name": "Restaurant Ambassel", "type": "Bars, Restaurants und Cafés", "link": null, "Text": null, "Name_1": "Restaurant Ambassel", "Gsearch": "https:\/\/www.google.com\/search?q=Restaurant Ambassel" }, "geometry": { "type": "Point", "coordinates": [ 8.693618, 50.106649000000175, 0.0 ] } },
{ "type": "Feature", "properties": { "Name": "Lemlem Äthiopisches Restaurant", "type": "Bars, Restaurants und Cafés", "link": null, "Text": null, "Name_1": "Lemlem Äthiopisches Restaurant", "Gsearch": "https:\/\/www.google.com\/search?q=Lemlem Äthiopisches Restaurant" }, "geometry": { "type": "Point", "coordinates": [ 6.767002100000184, 51.432247500000074, 0.0 ] } },
{ "type": "Feature", "properties": { "Name": "Restaurant Demera", "type": "Bars, Restaurants und Cafés", "link": null, "Text": null, "Name_1": "Restaurant Demera", "Gsearch": "https:\/\/www.google.com\/search?q=Restaurant Demera" }, "geometry": { "type": "Point", "coordinates": [ 8.674488600000075, 50.126642899999979, 0.0 ] } },
{ "type": "Feature", "properties": { "Name": "Savanna Restaurant", "type": "Bars, Restaurants und Cafés", "link": null, "Text": null, "Name_1": "Savanna Restaurant", "Gsearch": "https:\/\/www.google.com\/search?q=Savanna Restaurant" }, "geometry": { "type": "Point", "coordinates": [ 8.685655000000111, 50.117849000000149, 0.0 ] } },
{ "type": "Feature", "properties": { "Name": "Sebeta", "type": "Bars, Restaurants und Cafés", "link": null, "Text": null, "Name_1": "Sebeta", "Gsearch": "https:\/\/www.google.com\/search?q=Sebeta" }, "geometry": { "type": "Point", "coordinates": [ 8.661111100000028, 50.102222200000028, 0.0 ] } },
{ "type": "Feature", "properties": { "Name": "Äthiopisches Streetfood", "type": "Bars, Restaurants und Cafés", "link": null, "Text": null, "Name_1": "Äthiopisches Streetfood", "Gsearch": "https:\/\/www.google.com\/search?q=Äthiopisches Streetfood" }, "geometry": { "type": "Point", "coordinates": [ 8.611072799999988, 50.124971700000117, 0.0 ] } },
{ "type": "Feature", "properties": { "Name": "Äthiopische Küche", "type": "Bars, Restaurants und Cafés", "link": null, "Text": null, "Name_1": "Äthiopische Küche", "Gsearch": "https:\/\/www.google.com\/search?q=Äthiopische Küche" }, "geometry": { "type": "Point", "coordinates": [ 8.703140000000133, 50.048680000000161, 0.0 ] } },
{ "type": "Feature", "properties": { "Name": "HAGOS Restaurant Cafe Bar", "type": "Bars, Restaurants und Cafés", "link": null, "Text": null, "Name_1": "HAGOS Restaurant Cafe Bar", "Gsearch": "https:\/\/www.google.com\/search?q=HAGOS Restaurant Cafe Bar" }, "geometry": { "type": "Point", "coordinates": [ 8.664503400000058, 50.092008500000134, 0.0 ] } },
{ "type": "Feature", "properties": { "Name": "Ethiopia Restaurant & Bar", "type": "Bars, Restaurants und Cafés", "link": null, "Text": null, "Name_1": "Ethiopia Restaurant & Bar", "Gsearch": "https:\/\/www.google.com\/search?q=Ethiopia Restaurant & Bar" }, "geometry": { "type": "Point", "coordinates": [ 8.65700070000014, 50.107351300000062, 0.0 ] } },
{ "type": "Feature", "properties": { "Name": "Rohkosteria", "type": "Bars, Restaurants und Cafés", "link": null, "Text": null, "Name_1": "Rohkosteria", "Gsearch": "https:\/\/www.google.com\/search?q=Rohkosteria" }, "geometry": { "type": "Point", "coordinates": [ 8.697515400000157, 50.120980500000087, 0.0 ] } },
{ "type": "Feature", "properties": { "Name": "Chubbys Homemade Burger", "type": "Bars, Restaurants und Cafés", "link": null, "Text": null, "Name_1": "Chubbys Homemade Burger", "Gsearch": "https:\/\/www.google.com\/search?q=Chubbys Homemade Burger" }, "geometry": { "type": "Point", "coordinates": [ 9.188458100000105, 50.1977938, 0.0 ] } },
{ "type": "Feature", "properties": { "Name": "Blue Nile", "type": "Bars, Restaurants und Cafés", "link": null, "Text": null, "Name_1": "Blue Nile", "Gsearch": "https:\/\/www.google.com\/search?q=Blue Nile" }, "geometry": { "type": "Point", "coordinates": [ 8.668249900000092, 50.583306300000118, 0.0 ] } },
{ "type": "Feature", "properties": { "Name": "Mosob Restaurant", "type": "Bars, Restaurants und Cafés", "link": null, "Text": null, "Name_1": "Mosob Restaurant", "Gsearch": "https:\/\/www.google.com\/search?q=Mosob Restaurant" }, "geometry": { "type": "Point", "coordinates": [ 8.659847100000093, 50.10819000000015, 0.0 ] } },
{ "type": "Feature", "properties": { "Name": "Kenkey House", "type": "Bars, Restaurants und Cafés", "link": "https:\/\/de-de.facebook.com\/KenkeyHouseFrankfurt\/", "Text": null, "Name_1": "Kenkey House", "Gsearch": "https:\/\/www.google.com\/search?q=Kenkey House" }, "geometry": { "type": "Point", "coordinates": [ 8.666904600000123, 50.098234400000138, 0.0 ] } },
{ "type": "Feature", "properties": { "Name": "Pizzeria Italia 90", "type": "Bars, Restaurants und Cafés", "link": null, "Text": null, "Name_1": "Pizzeria Italia 90", "Gsearch": "https:\/\/www.google.com\/search?q=Pizzeria Italia 90" }, "geometry": { "type": "Point", "coordinates": [ 8.692007800000113, 50.100973200000055, 0.0 ] } },
{ "type": "Feature", "properties": { "Name": "Soulkitchen Ideal", "type": "Bars, Restaurants und Cafés", "link": null, "Text": null, "Name_1": "Soulkitchen Ideal", "Gsearch": "https:\/\/www.google.com\/search?q=Soulkitchen Ideal" }, "geometry": { "type": "Point", "coordinates": [ 8.692324400000189, 50.053295300000116, 0.0 ] } },
{ "type": "Feature", "properties": { "Name": "Seni's Ethiopian Streetfood", "type": "Bars, Restaurants und Cafés", "link": null, "Text": null, "Name_1": "Seni's Ethiopian Streetfood", "Gsearch": "https:\/\/www.google.com\/search?q=Seni's Ethiopian Streetfood" }, "geometry": { "type": "Point", "coordinates": [ 8.6109376, 50.125036, 0.0 ] } },
{ "type": "Feature", "properties": { "Name": "Café Caramel - Frankfurt am Main", "type": "Bars, Restaurants und Cafés", "link": null, "Text": null, "Name_1": "Café Caramel - Frankfurt am Main", "Gsearch": "https:\/\/www.google.com\/search?q=Café Caramel - Frankfurt am Main" }, "geometry": { "type": "Point", "coordinates": [ 8.681363100000056, 50.124408099999982, 0.0 ] } },
{ "type": "Feature", "properties": { "Name": "Bunca Barista & Caterer", "type": "Bars, Restaurants und Cafés", "link": null, "Text": null, "Name_1": "Bunca Barista & Caterer", "Gsearch": "https:\/\/www.google.com\/search?q=Bunca Barista & Caterer" }, "geometry": { "type": "Point", "coordinates": [ 8.67523360000007, 50.111213100000157, 0.0 ] } },
{ "type": "Feature", "properties": { "Name": "Corretto Cafe&Bar", "type": "Bars, Restaurants und Cafés", "link": null, "Text": null, "Name_1": "Corretto Cafe&Bar", "Gsearch": "https:\/\/www.google.com\/search?q=Corretto Cafe&Bar" }, "geometry": { "type": "Point", "coordinates": [ 8.682443800000158, 50.115220700000123, 0.0 ] } },
{ "type": "Feature", "properties": { "Name": "Das Herz von Frankfurt", "type": "Bars, Restaurants und Cafés", "link": null, "Text": null, "Name_1": "Das Herz von Frankfurt", "Gsearch": "https:\/\/www.google.com\/search?q=Das Herz von Frankfurt" }, "geometry": { "type": "Point", "coordinates": [ 8.683054900000059, 50.111122100000102, 0.0 ] } },
{ "type": "Feature", "properties": { "Name": "feel good", "type": "Bars, Restaurants und Cafés", "link": null, "Text": null, "Name_1": "feel good", "Gsearch": "https:\/\/www.google.com\/search?q=feel good" }, "geometry": { "type": "Point", "coordinates": [ 8.694871900000123, 50.111143500000082, 0.0 ] } },
{ "type": "Feature", "properties": { "Name": "Elaine's Deli", "type": "Bars, Restaurants und Cafés", "link": null, "Text": null, "Name_1": "Elaine's Deli", "Gsearch": "https:\/\/www.google.com\/search?q=Elaine's Deli" }, "geometry": { "type": "Point", "coordinates": [ 8.672668400000077, 50.11053260000017, 0.0 ] } },
{ "type": "Feature", "properties": { "Name": "L'afrique GmbH", "type": "Bars, Restaurants und Cafés", "link": null, "Text": null, "Name_1": "L'afrique GmbH", "Gsearch": "https:\/\/www.google.com\/search?q=L'afrique GmbH" }, "geometry": { "type": "Point", "coordinates": [ 8.765187300000093, 50.104004600000053, 0.0 ] } },
{ "type": "Feature", "properties": { "Name": "Café Robe", "type": "Bars, Restaurants und Cafés", "link": null, "Text": null, "Name_1": "Café Robe", "Gsearch": "https:\/\/www.google.com\/search?q=Café Robe" }, "geometry": { "type": "Point", "coordinates": [ 8.707335300000182, 50.126069100000109, 0.0 ] } },
{ "type": "Feature", "properties": { "Name": "Azalye Cafe", "type": "Bars, Restaurants und Cafés", "link": null, "Text": null, "Name_1": "Azalye Cafe", "Gsearch": "https:\/\/www.google.com\/search?q=Azalye Cafe" }, "geometry": { "type": "Point", "coordinates": [ 8.678024, 50.10976480000005, 0.0 ] } }
]
}
